# Time (s),Altitude (m),Vertical velocity (m/s),Vertical acceleration (m/s²),Total acceleration (m/s²),Roll rate (°/s),Pitch rate (°/s),Yaw rate (°/s),Air pressure (mbar)
0.01,-4.38e-4,-0.09,-8.76,8.76,0,0,0,1012.27
0.02,-3.33e-4,-0.07,-6.67,6.67,0,0,0,1012.27
0.03,-2.29e-4,-0.05,-4.57,4.57,0,0,0,1012.27
0.04,-1.24e-4,-0.02,-2.48,2.48,0,0,0,1012.27
0.05,2.7e-5,0.01,0.54,0.54,0,0,0,1012.27
0.06,3.06e-4,0.05,4.49,4.49,0,0,0,1012.27
0.07,0,0.13,8.45,8.45,0,0,0,1012.27
0.08,0,0.26,12.4,12.4,0,0,0,1012.27
0.09,0.01,0.42,16.36,16.36,0,0,0,1012.27
0.1,0.01,0.63,20.32,20.32,0,0,0,1012.27
0.11,0.02,0.87,24.28,24.28,0,0,0,1012.27
0.12,0.03,1.15,28.43,28.43,0,0,0,1012.26
0.13,0.04,1.5,34.31,34.31,0,0,0,1012.26
0.14,0.06,1.9,40.61,40.61,0,0,0,1012.26
0.15,0.08,2.37,46.91,46.91,0,0,0,1012.26
0.16,0.11,2.9,53.22,53.22,0,0,0,1012.26
0.17,0.14,3.5,59.54,59.54,0,0,0,1012.25
0.18,0.18,4.16,65.86,65.86,0,0,0,1012.25
0.19,0.22,4.88,72.18,72.18,0,0,0,1012.24
0.2,0.28,5.66,78.51,78.51,0,0,0,1012.24
0.21,0.34,6.51,84.84,84.84,0,0,0,1012.23
0.22,0.41,7.39,88.4,88.4,0,0,0,1012.22
0.23,0.48,8.23,83.88,83.88,0,0,0,1012.21
0.24,0.57,9.02,78.85,78.85,0,0,0,1012.2
0.25,0.66,9.76,73.81,73.81,0,0,0,1012.19
0.26,0.77,10.45,68.76,68.76,0,0,0,1012.18
0.27,0.87,11.08,63.7,63.7,0,0,0,1012.17
0.28,0.99,11.67,58.65,58.65,0,0,0,1012.15
0.29,1.1,12.17,53.87,53.87,0,0,0,1012.14
0.3,1.21,12.63,50.66,50.66,0,0,0,1012.13
0.31,1.39,13.27,47.22,47.74,0,-3.11,3.15e-4,1012.11
0.33,1.65,14.08,42.23,42.84,4.39e-7,-6.6,4.67e-5,1012.08
0.36,2.02,15.05,37.18,37.9,-1.47e-6,-9.73,3.33e-4,1012.03
0.4,2.63,16.3,32.24,33.1,-5.65e-6,-10.68,8.16e-4,1011.96
0.45,3.48,17.75,28.9,30.08,-2.81e-6,-6.93,-5.94e-4,1011.86
0.48,4.15,18.75,27.34,28.53,-1.47e-6,-0.79,-4.48e-4,1011.79
0.5,4.46,19.19,26.59,27.75,-4.07e-7,3.83,-0,1011.75
0.51,4.71,19.53,26.33,27.51,-8.22e-7,8.04,-0,1011.72
0.52,4.94,19.84,26.2,27.39,-1.18e-6,12.19,-0,1011.69
0.53,5.16,20.12,26.09,27.25,-1.19e-6,16.24,-0,1011.67
0.54,5.38,20.4,25.99,27.11,-1.75e-6,20.26,-0,1011.64
0.56,5.59,20.67,25.89,26.96,-2.52e-6,24.28,-0,1011.62
0.57,5.81,20.94,25.8,26.81,-2.22e-6,28.3,-0,1011.59
0.58,6.03,21.2,25.72,26.66,0,32.31,-0,1011.57
0.59,6.25,21.47,25.64,26.49,-9.03e-7,36.31,-0,1011.54
0.6,6.47,21.73,25.56,26.32,2.11e-6,40.31,-0,1011.52
0.61,6.69,21.99,25.53,26.21,-2.2e-6,44.3,-0,1011.49
0.62,6.92,22.26,25.57,26.16,1.04e-6,48.29,-0,1011.47
0.63,7.16,22.52,25.61,26.11,-2.23e-6,52.28,-0,1011.44
0.64,7.39,22.79,25.65,26.05,6.39e-7,56.26,-0,1011.41
0.65,7.64,23.06,25.68,25.99,-1.45e-6,60.22,-0,1011.38
0.66,7.89,23.34,25.7,25.9,-7.06e-6,64.15,-0,1011.35
0.67,8.15,23.63,25.71,25.82,1.23e-6,68.05,-0,1011.32
0.68,8.43,23.93,25.71,25.74,1.28e-6,71.92,-0,1011.29
0.7,8.74,24.26,25.68,25.68,-6.78e-6,75.74,-0,1011.25
0.71,9.08,24.62,25.62,25.64,1.35e-5,79.51,-0,1011.22
0.73,9.47,25.02,25.52,25.62,-1.12e-5,83.22,-0,1011.17
0.74,9.93,25.49,25.34,25.64,3.34e-6,86.76,-0,1011.12
0.77,10.56,26.1,24.99,25.72,-2.62e-5,89.82,-0.01,1011.04
0.8,11.45,26.93,24.3,25.95,-8.49e-6,90.51,-0.02,1010.94
0.83,12.36,27.72,23.34,26.28,1.16e-4,-86.33,-0.02,1010.84
0.85,12.91,28.18,22.65,26.52,-3.65e-5,-81.46,-0.01,1010.77
0.87,13.32,28.5,22.14,26.72,0,-77.12,-0,1010.72
0.88,13.68,28.77,21.68,26.89,-3.15e-6,-72.9,-0,1010.68
0.89,14,29.01,21.28,27.05,0,-68.74,-0,1010.64
0.9,14.3,29.23,20.91,27.19,-1.81e-6,-64.61,-0,1010.61
0.91,14.59,29.43,20.6,27.32,2.53e-6,-60.54,-0,1010.58
0.92,14.87,29.63,20.31,27.43,-7.01e-6,-56.47,-0,1010.54
0.93,15.14,29.81,20.05,27.53,2.17e-6,-52.42,-0,1010.51
0.94,15.41,29.99,19.81,27.62,-1.09e-6,-48.38,-0,1010.48
0.95,15.67,30.16,19.6,27.7,4.76e-6,-44.34,-0,1010.45
0.96,15.93,30.33,19.41,27.76,-5.37e-7,-40.32,-0,1010.42
0.97,16.19,30.49,19.26,27.81,-4.93e-6,-36.31,-2.59e-4,1010.39
0.97,16.45,30.66,19.13,27.85,1.72e-6,-32.3,-0,1010.36
0.98,16.71,30.82,19.02,27.88,1.49e-6,-28.29,-0,1010.33
0.99,16.97,30.98,18.94,27.9,-1.16e-6,-24.3,-2.72e-4,1010.3
1,17.23,31.14,18.88,27.9,0,-20.31,-0,1010.27
1.01,17.5,31.3,18.85,27.89,7.15e-7,-16.33,-0,1010.24
1.02,17.77,31.46,18.85,27.87,0,-12.36,-0,1010.21
1.03,18.04,31.63,18.87,27.83,-6.03e-7,-8.4,-0,1010.18
1.03,18.33,31.79,18.92,27.78,0,-4.45,-0,1010.14
1.04,18.62,31.97,19,27.72,0,-0.51,-0,1010.11
1.05,18.92,32.15,19.06,27.67,0,3.41,-0,1010.07
1.06,19.23,32.33,19.05,27.67,-4.51e-7,7.44,-0,1010.04
1.07,19.54,32.51,19.07,27.66,1.33e-6,11.45,-3.93e-5,1010
1.08,19.85,32.7,19.12,27.64,0,15.44,-6.04e-4,1009.97
1.09,20.17,32.88,19.2,27.6,-7.56e-7,19.42,4.65e-4,1009.93
1.1,20.49,33.07,19.33,27.53,1.08e-6,23.38,6.41e-4,1009.89
1.11,20.82,33.26,19.58,27.4,7.47e-7,27.22,3.9e-4,1009.85
1.12,21.18,33.47,19.87,27.25,-1.14e-6,31.01,-3.59e-4,1009.81
1.13,21.59,33.72,20.22,27.08,6e-6,34.71,9.55e-4,1009.76
1.15,22.07,34.01,20.64,26.87,-1.97e-6,38.24,-0,1009.71
1.17,22.72,34.4,21.14,26.64,2.07e-5,41.52,-4.53e-4,1009.63
1.2,23.69,35.01,21.86,26.32,3.07e-5,43.64,-0.02,1009.52
1.24,25.19,35.95,22.81,25.91,-3.77e-5,-40.04,-0,1009.35
1.26,26,36.47,23.21,25.74,-1.89e-5,-35.06,-0,1009.25
1.28,26.58,36.83,23.41,25.66,7.12e-6,-30.81,-0,1009.19
1.29,27.09,37.16,23.55,25.61,3.05e-6,-26.64,-0.01,1009.13
1.3,27.57,37.47,23.66,25.56,1.27e-6,-22.53,-0,1009.07
1.31,28.03,37.75,23.8,25.5,-3.12e-6,-18.28,-0,1009.02
1.33,28.44,38.01,23.9,25.46,5.22e-7,-14.13,-0,1008.97
1.34,28.82,38.25,23.97,25.44,-1.86e-6,-10.01,-0,1008.93
1.35,29.19,38.48,24.01,25.41,-2.36e-6,-5.93,-0,1008.88
1.35,29.55,38.7,24.01,25.4,-1.54e-6,-1.87,-0,1008.84
1.36,29.9,38.92,23.95,25.39,-1.48e-6,2.04,-0,1008.8
1.37,30.28,39.15,23.87,25.39,-1.69e-6,5.94,-0,1008.76
1.38,30.67,39.39,23.76,25.39,0,9.8,-0,1008.71
1.39,31.1,39.65,23.63,25.41,-2.54e-6,13.61,-0,1008.66
1.41,31.58,39.93,23.48,25.42,-5.52e-6,17.34,-0.01,1008.61
1.42,32.12,40.25,23.31,25.44,-2.59e-6,21.11,-0,1008.54
1.44,32.74,40.61,23.08,25.47,1.07e-5,24.73,-0,1008.47
1.45,33.53,41.05,22.78,25.53,5.1e-6,28.02,-0.01,1008.38
1.48,34.69,41.68,22.38,25.58,-1.56e-5,31.24,-0.01,1008.25
1.52,36.45,42.6,21.67,25.72,-8.73e-6,-32.42,4.59e-4,1008.04
1.57,38.61,43.66,20.65,25.99,-1.86e-4,-27.55,0.01,1007.79
1.59,39.48,44.07,20.22,26.13,2e-5,-22.47,-0,1007.69
1.61,40.15,44.37,19.88,26.25,3.23e-6,-18.11,1.75e-4,1007.61
1.62,40.71,44.62,19.61,26.37,-4.62e-6,-13.75,-2.03e-4,1007.55
1.63,41.19,44.83,19.42,26.45,-3.06e-6,-9.55,-0,1007.49
1.64,41.63,45.02,19.28,26.5,-6.02e-6,-5.42,-6.06e-4,1007.44
1.65,42.05,45.2,19.21,26.52,-5.9e-6,-1.34,-0,1007.39
1.66,42.45,45.37,19.22,26.49,-6.37e-6,2.63,-9.74e-4,1007.34
1.67,42.87,45.54,19.28,26.43,-6.25e-6,6.57,-0,1007.3
1.68,43.3,45.73,19.37,26.36,-3.92e-6,10.48,0,1007.25
1.69,43.76,45.92,19.51,26.26,-8.76e-6,14.33,-0,1007.19
1.7,44.25,46.13,19.7,26.14,-5.48e-6,18.12,-0,1007.14
1.71,44.81,46.37,19.96,25.98,-1.06e-5,21.77,-0,1007.07
1.73,45.49,46.67,20.25,25.71,-2.19e-5,25.16,-0.01,1006.99
1.75,46.49,47.1,20.65,25.27,-5.72e-6,27.74,-0.01,1006.88
1.78,48,47.76,21.1,24.72,-7.39e-6,-26.67,-0.01,1006.7
1.81,49.68,48.5,21.38,24.19,-5.83e-5,-20.17,-0,1006.51
1.83,50.44,48.83,21.35,23.88,-6.2e-6,-15.75,-0.01,1006.42
1.84,51.1,49.11,21.11,23.48,-8.06e-6,-11.58,-0.01,1006.34
1.86,51.71,49.37,20.82,23.05,-7.37e-6,-7.51,-0.01,1006.27
1.87,52.29,49.61,20.55,22.64,-8.76e-6,-3.31,-0.01,1006.2
1.88,52.83,49.83,20.26,22.27,-8.65e-6,0.78,-0,1006.14
1.89,53.34,50.04,19.95,21.93,-9.22e-6,4.8,-0,1006.08
1.9,53.86,50.24,19.62,21.61,-8.11e-6,8.78,-0,1006.02
1.91,54.38,50.44,19.28,21.28,-8.45e-6,12.76,-0,1005.96
1.92,54.91,50.64,18.89,20.93,-4.94e-6,16.71,-0,1005.9
1.93,55.46,50.84,18.1,20.21,-4.95e-6,20.59,-0,1005.84
1.94,56.06,51.04,17.1,19.33,0,24.39,0,1005.77
1.96,56.72,51.25,15.95,18.4,-3.16e-5,28.06,-0,1005.69
1.97,57.55,51.48,14.47,17.37,1.92e-5,31.19,-9.07e-4,1005.59
2,58.8,51.79,12.11,15.85,8.51e-6,-32.56,0.01,1005.45
2.03,60.69,52.11,8.55,13.07,-9.24e-5,-29.19,0.02,1005.23
2.06,62.2,52.26,4.94,10.34,-1.89e-5,-24.69,0.01,1005.05
2.08,63.17,52.3,2.36,8.78,2.93e-5,-19.83,-0,1004.94
2.09,63.92,52.31,0.64,7.93,-1.27e-5,-15.59,0,1004.86
2.11,64.6,52.3,-0.84,7.59,-1.4e-5,-11.45,0,1004.78
2.12,65.2,52.28,-2.18,7.57,-1.13e-5,-7.14,0,1004.71
2.13,65.73,52.25,-3.31,7.65,-9.75e-6,-3,0.01,1004.64
2.14,66.23,52.21,-4.3,7.79,-9.99e-6,1.08,0.01,1004.59
2.15,66.72,52.16,-5.19,7.98,-8.91e-6,5.11,0.01,1004.53
2.16,67.2,52.1,-5.91,7.94,-1.17e-5,8.97,0.01,1004.47
2.17,67.73,52.03,-6.58,7.89,-6.67e-6,12.62,0.01,1004.41
2.18,68.37,51.94,-7.31,7.97,-1.54e-5,16.04,0.01,1004.34
2.2,69.28,51.79,-8.24,8.38,-1.51e-6,18.79,0.01,1004.23
2.22,70.62,51.53,-10.03,10.03,-3.02e-5,-19.39,0.06,1004.08
2.24,71.6,51.29,-12.31,12.45,-2.1e-5,-18.47,0.01,1003.96
2.27,73.07,50.91,-12.92,13.32,-7.66e-5,-14.42,0.01,1003.79
2.29,73.97,50.69,-12.64,13.2,-1.09e-5,-9.54,-0,1003.69
2.3,74.64,50.52,-12.5,13.14,-1.35e-5,-5.24,0,1003.61
2.31,75.23,50.37,-12.47,13.11,-1.33e-5,-1.2,0,1003.54
2.32,75.81,50.23,-12.46,13.09,-1.27e-5,2.78,0,1003.48
2.34,76.4,50.08,-12.49,13.08,-1.35e-5,6.68,0,1003.41
2.35,77.02,49.93,-12.55,13.08,-1.97e-5,10.5,-4.29e-4,1003.34
2.36,77.7,49.76,-12.71,13.12,-1.43e-5,14.08,0.01,1003.26
2.38,78.57,49.53,-12.95,13.22,1.61e-6,17.24,0.01,1003.16
2.41,79.87,49.19,-13.25,13.38,1.36e-5,18.7,0.05,1003.01
2.45,81.8,48.66,-13.3,13.41,9.95e-6,-18.61,0.05,1002.78
2.5,84.22,47.99,-13.51,13.56,5.78e-5,-15.05,-0,1002.5
2.53,85.88,47.52,-13.44,13.49,2.07e-5,-11.17,-0.01,1002.31
2.57,87.72,47,-13.25,13.33,-4.32e-5,-8.15,0,1002.09
2.62,90.06,46.35,-12.91,13.05,1.34e-5,7.05,-0.03,1001.82
2.67,92.36,45.71,-12.8,12.96,6.01e-5,10.61,-0.03,1001.56
2.72,94.63,45.06,-13.07,13.14,-3.95e-5,-9.11,-0.01,1001.29
2.77,96.86,44.4,-13.13,13.17,-2.84e-5,-2.97,0.01,1001.03
2.8,98.33,43.97,-12.94,13.01,-6.68e-6,-0.06,-0,1000.86
2.85,100.51,43.33,-12.59,12.7,-1.86e-5,-1.38,0.01,1000.61
2.9,102.66,42.71,-12.23,12.42,-5.7e-7,1.67,0.01,1000.36
2.94,104.38,42.21,-12.41,12.53,-2.85e-5,3.78,-0,1000.16
2.99,106.48,41.6,-11.9,12.16,-2.01e-5,7.47,0.01,999.92
3.02,107.55,41.3,-11.91,12.15,-1.65e-5,11.87,0.01,999.8
3.05,108.76,40.94,-12.09,12.26,2.88e-6,14.77,0.02,999.66
3.09,110.55,40.39,-12.86,12.87,-5.88e-6,-12.23,0.01,999.45
3.12,111.49,40.09,-12.98,12.98,-8.53e-6,-7.7,0.01,999.34
3.14,112.29,39.83,-12.9,12.91,-8.45e-6,-3.94,0.01,999.25
3.16,113.14,39.56,-12.69,12.71,-1.17e-5,-0.23,0.01,999.15
3.19,114.28,39.2,-12.2,12.28,-7.96e-6,1.87,0,999.02
3.23,115.96,38.68,-11.89,12.02,-9.81e-6,0.39,0,998.82
3.28,117.88,38.09,-11.93,12.03,-9.55e-6,2.82,-0.01,998.6
3.33,119.77,37.49,-11.63,11.79,-2.67e-5,3.29,-0.01,998.38
3.37,121.43,36.98,-11.47,11.66,-4.38e-5,10.24,-0.01,998.19
3.41,122.61,36.61,-11.55,11.7,-2.54e-6,13.28,-0,998.05
3.45,124.28,36.08,-11.75,11.84,-5.58e-5,15.5,0,997.86
3.5,126.07,35.49,-11.79,11.86,-6.45e-5,-15.82,0.35,997.65
3.55,127.83,34.9,-11.82,11.89,4.78e-5,-14.81,0.03,997.44
3.6,129.56,34.31,-11.63,11.72,-8.54e-6,14.61,0.1,997.24
3.65,131.26,33.73,-11.85,11.9,1.06e-4,-13.21,0.01,997.05
3.7,132.93,33.12,-12.12,12.13,2.21e-5,-7.78,0.01,996.85
3.73,133.9,32.78,-11.46,11.56,-1.2e-5,6.24,-0.02,996.74
3.78,135.33,32.28,-11.46,11.55,6.37e-5,10.79,-0.08,996.57
3.83,136.93,31.7,-11.58,11.64,-7.09e-6,-5.69,-0,996.39
3.88,138.5,31.13,-11.29,11.38,2.77e-5,6.7,-0.01,996.21
3.93,140.05,30.57,-11.05,11.18,-3.18e-5,9.43,0,996.03
3.98,141.56,30.02,-11.22,11.3,-5.94e-5,13.38,0.04,995.85
4.03,143.05,29.45,-11.38,11.43,-1.46e-5,-11.11,0.03,995.68
4.08,144.51,28.88,-11.54,11.57,3.02e-5,-10.17,0.01,995.51
4.13,145.94,28.3,-11.65,11.66,9.61e-6,-4.35,0.01,995.34
4.16,146.95,27.88,-11.5,11.52,1.4e-6,-0.71,0.01,995.23
4.21,148.26,27.34,-11.09,11.15,2.41e-6,1.08,0.01,995.07
4.26,149.62,26.79,-10.82,10.9,7.15e-6,0.24,-0.01,994.92
4.31,150.94,26.25,-10.71,10.8,4.99e-6,2.85,-0.01,994.76
4.36,152.24,25.72,-10.55,10.66,1.09e-5,6.62,-0,994.61
4.4,153.39,25.25,-10.38,10.52,2.06e-5,11.35,-0,994.48
4.44,154.26,24.89,-10.32,10.46,-2.66e-6,15.49,-0,994.38
4.47,155.09,24.55,-10.39,10.51,8.47e-6,19.28,0,994.28
4.51,156.08,24.12,-10.59,10.67,-1.1e-5,22.35,0.01,994.17
4.56,157.27,23.58,-11.02,11.05,-4.64e-5,-22.69,0.02,994.03
4.61,158.43,23.02,-11.41,11.41,-5.93e-5,-16.49,0.01,993.89
4.64,159.12,22.68,-11.16,11.18,1.08e-5,-13.62,0.01,993.81
4.69,160.14,22.17,-11.17,11.18,-2.07e-5,-9.95,0.01,993.7
4.73,161.11,21.68,-10.87,10.89,5.53e-6,-6.54,0.01,993.58
4.78,162.18,21.15,-10.74,10.78,1.21e-5,-6.23,0.01,993.46
4.83,163.22,20.61,-10.73,10.76,-3.49e-6,-4.71,0.01,993.34
4.88,164.24,20.08,-10.6,10.64,6.39e-6,-3.73,-0.01,993.22
4.93,165.23,19.55,-10.56,10.59,8.2e-6,-3.9,-0.02,993.11
4.98,166.19,19.02,-10.46,10.49,-1.33e-6,3.58,-0.02,992.99
5.03,167.13,18.5,-10.24,10.29,-6.11e-6,4.9,-0.01,992.89
5.08,168.04,17.99,-10.14,10.2,-1.31e-6,7.93,-0.01,992.78
5.13,168.93,17.49,-9.89,9.97,1.79e-5,11.08,-0.01,992.68
5.17,169.64,17.09,-9.84,9.92,-1e-5,15.96,-0,992.59
5.21,170.32,16.69,-9.88,9.95,-1.44e-5,19.2,-0.01,992.52
5.26,171.07,16.25,-9.75,9.83,2.16e-5,23.63,-0,992.43
5.3,171.69,15.87,-9.61,9.71,-7.56e-6,28.01,-0,992.36
5.33,172.21,15.55,-9.9,9.97,-2.88e-6,31.16,3.04e-4,992.3
5.38,172.98,15.04,-10.1,10.14,1.71e-5,32.65,0,992.21
5.43,173.72,14.54,-10.19,10.22,7.6e-5,33.73,6.39e-4,992.12
5.48,174.43,14.03,-10.3,10.33,-3.09e-5,-33.45,0.1,992.04
5.53,175.12,13.5,-10.61,10.63,2.09e-5,-31.67,0.01,991.96
5.58,175.78,12.97,-10.81,10.82,1.12e-5,-26.85,0.01,991.88
5.62,176.29,12.53,-10.9,10.91,-1.78e-5,-22.86,0.01,991.82
5.66,176.73,12.14,-10.93,10.94,-4.13e-6,-18.61,0.01,991.77
5.69,177.14,11.77,-10.77,10.78,3.79e-6,-15.01,0.01,991.72
5.73,177.64,11.31,-10.77,10.78,3.27e-6,-11.16,0.01,991.67
5.78,178.11,10.85,-10.59,10.6,-4.62e-6,-7.28,0.01,991.61
5.83,178.64,10.33,-10.24,10.26,1.09e-5,-5.22,0.01,991.55
5.88,179.14,9.83,-10.01,10.04,0,5.49,-0.01,991.49
5.93,179.62,9.33,-9.79,9.83,-1.4e-5,6.65,-0.01,991.44
5.98,180.07,8.85,-9.42,9.47,-6.33e-6,9.95,-0.01,991.38
6.02,180.43,8.47,-9.22,9.29,-4.51e-6,15.04,-0.01,991.34
6.05,180.7,8.16,-9.27,9.33,-2.83e-6,18.72,-0.01,991.31
6.09,181,7.82,-9.39,9.44,-3.05e-6,22.34,-0.01,991.28
6.13,181.34,7.4,-9.37,9.42,-2.08e-5,26.08,-0.01,991.24
6.18,181.68,6.96,-9.33,9.38,-1e-5,30.19,-0.01,991.2
6.23,181.99,6.53,-9.53,9.56,-3.76e-5,33.93,-0.01,991.16
6.28,182.3,6.04,-9.75,9.78,-4.44e-5,35.13,0,991.13
6.33,182.59,5.55,-9.93,9.95,4.28e-5,35.64,0.07,991.09
6.38,182.86,5.05,-10.12,10.14,3.87e-5,-34.22,0.04,991.06
6.43,183.1,4.54,-10.23,10.25,3.59e-5,-31.56,0.03,991.03
6.48,183.31,4.03,-10.26,10.28,2.26e-5,-28.63,0.03,991.01
6.53,183.5,3.52,-10.26,10.28,2.57e-5,-25.58,0.02,990.99
6.58,183.66,3,-10.22,10.23,6.84e-6,-22.67,0.02,990.97
6.63,183.8,2.49,-10.11,10.13,1.9e-5,-20.25,0.01,990.95
6.68,183.91,1.99,-10.01,10.03,-1.74e-5,-18.67,0.01,990.94
6.73,184,1.49,-9.9,9.91,5.56e-6,-17.56,-0.01,990.93
6.78,184.06,1,-9.79,9.8,2.64e-5,17.5,-0.07,990.92
6.83,184.1,0.52,-9.67,9.69,-6.15e-7,17.88,-0.03,990.92
6.88,184.11,0.03,-9.56,9.57,3.01e-5,19.09,-0.03,990.92
6.93,184.1,-0.44,-9.47,9.48,8.87e-6,20.89,-0.03,990.92
6.98,184.07,-0.91,-9.39,9.41,1.79e-5,23.05,-0.03,990.92
7.03,184.01,-1.38,-9.34,9.36,7.39e-6,25.48,-0.03,990.93
7.08,183.93,-1.85,-9.33,9.34,-8.88e-6,27.96,-0.03,990.94
7.13,183.83,-2.31,-9.34,9.36,-1.69e-5,30.31,-0.03,990.95
7.18,183.7,-2.78,-9.4,9.41,2.94e-5,32.22,-0.04,990.96
7.23,183.55,-3.25,-9.45,9.46,-4.57e-5,33.58,-0.04,990.98
7.24,183.49,-3.41,-9.47,9.48,5.4e-6,33.97,-0.03,990.99
7.24,183.49,-3.43,-9.47,9.48,4.9e-6,34.02,-0.03,990.99
7.25,183.48,-3.44,-5.35,26.18,NaN,NaN,NaN,990.99
7.26,183.44,-3.5,-5.35,26.1,NaN,NaN,NaN,990.99
7.27,183.4,-3.57,-5.34,25.2,NaN,NaN,NaN,990.99
7.28,183.34,-3.65,-5.34,24.31,NaN,NaN,NaN,991
7.3,183.29,-3.73,-5.33,23.38,NaN,NaN,NaN,991.01
7.32,183.23,-3.81,-5.32,22.46,NaN,NaN,NaN,991.01
7.33,183.17,-3.89,-5.32,21.47,NaN,NaN,NaN,991.02
7.35,183.1,-3.98,-5.33,20.56,NaN,NaN,NaN,991.03
7.37,183.03,-4.08,-5.33,19.66,NaN,NaN,NaN,991.03
7.53,182.31,-4.92,-5.22,19.6,NaN,NaN,NaN,991.04
7.61,181.88,-5.29,-4.5,17.67,NaN,NaN,NaN,991.13
7.7,181.39,-5.67,-4.22,16.74,NaN,NaN,NaN,991.17
7.73,181.19,-5.82,-4.26,14.32,NaN,NaN,NaN,991.23
7.75,181.09,-5.9,-4.48,12.57,NaN,NaN,NaN,991.26
7.77,180.95,-6,-4.57,11.84,NaN,NaN,NaN,991.27
7.83,180.61,-6.26,-4.56,11.47,NaN,NaN,NaN,991.28
8.02,179.35,-7.08,-4.36,11.2,NaN,NaN,NaN,991.32
8.09,178.83,-7.39,-4.25,8.77,NaN,NaN,NaN,991.47
8.18,178.16,-7.76,-4.2,8.05,NaN,NaN,NaN,991.53
8.42,176.2,-8.67,-3.83,7.89,NaN,NaN,NaN,991.61
8.68,173.82,-9.44,-2.93,7.42,NaN,NaN,NaN,991.83
8.8,172.7,-9.78,-2.87,5.4,NaN,NaN,NaN,992.11
8.9,171.7,-10.07,-2.88,4.47,NaN,NaN,NaN,992.24
9.02,170.43,-10.41,-2.78,3.81,NaN,NaN,NaN,992.36
9.17,168.84,-10.74,-2.18,3.83,NaN,NaN,NaN,992.5
9.54,164.83,-11.38,-1.77,3.57,NaN,NaN,NaN,992.69
9.73,162.57,-11.63,-1.28,1.83,NaN,NaN,NaN,993.15
10.12,157.98,-11.97,-0.87,1.81,NaN,NaN,NaN,993.41
10.62,151.95,-12.15,-0.36,1.56,NaN,NaN,NaN,993.95
10.86,149.06,-12.19,-0.17,0.61,NaN,NaN,NaN,994.65
11.36,142.95,-12.25,-0.12,0.2,NaN,NaN,NaN,994.98
11.86,136.82,-12.26,-0.02,0.19,NaN,NaN,NaN,995.69
12.25,132.07,-12.24,0.06,1.1,NaN,NaN,NaN,996.4
12.75,125.95,-12.21,0.06,1.37,NaN,NaN,NaN,996.95
13.25,119.84,-12.24,-0.06,0.53,NaN,NaN,NaN,997.66
13.75,113.72,-12.24,0,0.68,NaN,NaN,NaN,998.37
14.16,108.67,-12.24,-0,0.53,NaN,NaN,NaN,999.08
14.66,102.59,-12.2,0.08,1.36,NaN,NaN,NaN,999.66
15.16,96.48,-12.23,-0.06,0.49,NaN,NaN,NaN,1000.37
15.66,90.36,-12.24,-0.02,0.12,NaN,NaN,NaN,1001.08
16.16,84.24,-12.24,0,0.15,NaN,NaN,NaN,1001.79
16.62,78.55,-12.21,0.05,0.92,NaN,NaN,NaN,1002.5
17.12,72.44,-12.19,0.04,1.14,NaN,NaN,NaN,1003.16
17.49,67.93,-12.21,-0.05,0.22,NaN,NaN,NaN,1003.87
17.74,64.94,-12.18,0.13,1.71,NaN,NaN,NaN,1004.39
18.05,61.08,-12.19,-0.02,0.95,NaN,NaN,NaN,1004.74
18.53,55.24,-12.21,-0.05,0.29,NaN,NaN,NaN,1005.18
18.89,50.93,-12.19,0.05,1.07,NaN,NaN,NaN,1005.86
19.39,44.84,-12.16,0.06,1.37,NaN,NaN,NaN,1006.36
19.89,38.75,-12.18,-0.03,0.93,NaN,NaN,NaN,1007.07
20.1,36.11,-12.17,0.05,1.37,NaN,NaN,NaN,1007.77
20.6,30.02,-12.16,0.01,1.2,NaN,NaN,NaN,1008.08
21.1,23.94,-12.19,-0.05,0.62,NaN,NaN,NaN,1008.79
21.6,17.85,-12.15,0.07,1.38,NaN,NaN,NaN,1009.49
21.83,15.11,-12.16,-0.04,0.84,NaN,NaN,NaN,1010.2
22,13.02,-12.13,0.16,2.13,NaN,NaN,NaN,1010.52
22.3,9.35,-12.12,0.02,1.57,NaN,NaN,NaN,1010.76
22.54,6.53,-12.15,-0.1,0.3,NaN,NaN,NaN,1011.18
23.04,0.45,-12.18,-0.07,0.19,NaN,NaN,NaN,1011.51
23.07,0,-12.18,0.01,0.68,NaN,NaN,NaN,1012.22
